{
  "domestic": [
    {
      "date": "2026-01-12",
      "name": "Web3 OPEN CONFERENCE 2026",
      "location": "KR",
      "city": "ì„œìš¸",
      "description": "Web3ì™€ ì‹¤ë¬¼ê²½ì œ ì—°ê²°"
    },
    {
      "date": "2026-01-30",
      "name": "AI SEOUL 2026",
      "location": "KR",
      "city": "ì„œìš¸",
      "description": "AI ì‚°ì—… ì „ë°˜ ì»¨í¼ëŸ°ìŠ¤"
    },
    {
      "date": "2026ë…„ ì´ˆ",
      "name": "Web3 AI Seoul",
      "location": "KR",
      "city": "ì„œìš¸",
      "description": "Web3+AI ìœµí•©"
    },
    {
      "date": "2026-07-06~11",
      "name": "ICML 2026",
      "location": "KR",
      "city": "ì„œìš¸ COEX",
      "description": "ML 3ëŒ€ í•™íšŒ"
    },
    {
      "date": "2026-08-09~13",
      "name": "KDD 2026",
      "location": "KR",
      "city": "ì œì£¼ë„",
      "description": "ë°ì´í„°ë§ˆì´ë‹ í•™íšŒ"
    }
  ],
  "international": [
    {
      "date": "2026-01-06~09",
      "name": "CES 2026",
      "location": "US",
      "city": "ë¼ìŠ¤ë² ì´ê±°ìŠ¤",
      "description": "ì„¸ê³„ ìµœëŒ€ IT ì „ì‹œíšŒ"
    },
    {
      "date": "2026-01-19~23",
      "name": "ë‹¤ë³´ìŠ¤ WEF",
      "location": "CH",
      "city": "ë‹¤ë³´ìŠ¤",
      "description": "AI ê±°ë²„ë„ŒìŠ¤ ë…¼ì˜"
    },
    {
      "date": "2026-01-20~27",
      "name": "AAAI-26",
      "location": "SG",
      "city": "ì‹±ê°€í¬ë¥´",
      "description": "AI í•™ìˆ  ìµœëŒ€ í–‰ì‚¬"
    },
    {
      "date": "2026-02-05~06",
      "name": "NFT Paris",
      "location": "FR",
      "city": "íŒŒë¦¬",
      "description": "Web3Â·RWA íŠ¸ë™"
    },
    {
      "date": "2026-02-11~12",
      "name": "Consensus HK",
      "location": "HK",
      "city": "í™ì½©",
      "description": "ì•„ì‹œì•„ ë¸”ë¡ì²´ì¸"
    },
    {
      "date": "2026-02-17~21",
      "name": "ETHDenver",
      "location": "US",
      "city": "ë´ë²„",
      "description": "ì´ë”ë¦¬ì›€ í•´ì»¤í†¤"
    },
    {
      "date": "2026-03-16~19",
      "name": "NVIDIA GTC",
      "location": "US",
      "city": "ì‚°í˜¸ì„¸",
      "description": "AI í•˜ë“œì›¨ì–´ ì»¨í¼ëŸ°ìŠ¤"
    },
    {
      "date": "2026-04-15~16",
      "name": "Paris Blockchain Week",
      "location": "FR",
      "city": "íŒŒë¦¬",
      "description": "ìœ ëŸ½ Web3 í—ˆë¸Œ"
    },
    {
      "date": "2026-04-26~05-01",
      "name": "ICLR 2026",
      "location": "ES",
      "city": "ë°”ë¥´ì…€ë¡œë‚˜",
      "description": "ë”¥ëŸ¬ë‹ í‘œí˜„í•™ìŠµ"
    },
    {
      "date": "2026-04-29~30",
      "name": "TOKEN2049 Dubai",
      "location": "AE",
      "city": "ë‘ë°”ì´",
      "description": "ê¸€ë¡œë²Œ í¬ë¦½í†  ë„¤íŠ¸ì›Œí‚¹"
    },
    {
      "date": "2026-05-05~07",
      "name": "Consensus Miami",
      "location": "US",
      "city": "ë§ˆì´ì• ë¯¸",
      "description": "ë¶ë¯¸ ìµœëŒ€ ë¸”ë¡ì²´ì¸"
    },
    {
      "date": "2026-06-01~05",
      "name": "ICRA 2026",
      "location": "AT",
      "city": "ë¹„ì—”ë‚˜",
      "description": "IEEE ë¡œë´‡ ìë™í™”"
    },
    {
      "date": "2026-06-02~06",
      "name": "CVPR 2026",
      "location": "US",
      "city": "ë´ë²„",
      "description": "ì»´í“¨í„°ë¹„ì „ ìµœëŒ€"
    },
    {
      "date": "2026-08-15~21",
      "name": "IJCAI 2026",
      "location": "DE",
      "city": "ë¸Œë ˆë©˜",
      "description": "AI ì¢…í•© í•™íšŒ"
    },
    {
      "date": "2026-09-08~13",
      "name": "ECCV 2026",
      "location": "SE",
      "city": "ë§ë«¼",
      "description": "ìœ ëŸ½ ì»´í“¨í„°ë¹„ì „"
    },
    {
      "date": "2026-09-27~10-01",
      "name": "IROS 2026",
      "location": "US",
      "city": "í”¼ì¸ ë²„ê·¸",
      "description": "ì§€ëŠ¥í˜• ë¡œë´‡ ì‹œìŠ¤í…œ"
    },
    {
      "date": "2026-10-07",
      "name": "TOKEN2049 Singapore",
      "location": "SG",
      "city": "ì‹±ê°€í¬ë¥´",
      "description": "ì•„ì‹œì•„ í¬ë¦½í†  í—ˆë¸Œ"
    },
    {
      "date": "2026-12-14~18",
      "name": "NeurIPS 2026",
      "location": "AU",
      "city": "ì‹œë“œë‹ˆ",
      "description": "ML ìµœëŒ€ ê·œëª¨ í•™íšŒ"
    }
  ],
  "academic": [
    {
      "date": "2026-01-20~27",
      "name": "AAAI-26 í•™ìˆ ",
      "location": "SG",
      "city": "ì‹±ê°€í¬ë¥´",
      "description": "AI ìµœìƒìœ„ í”„ë¡œê·¸ë¨"
    },
    {
      "date": "2026-02-04~05",
      "name": "AI & Big Data",
      "location": "GB",
      "city": "ëŸ°ë˜",
      "description": "AIÂ·ë¹…ë°ì´í„° ë°œí‘œ"
    },
    {
      "date": "2026-02-09~10",
      "name": "AI Revolution",
      "location": "SG",
      "city": "ì‹±ê°€í¬ë¥´",
      "description": "AI ì—°êµ¬Â·ì‘ìš© ë°œí‘œ"
    },
    {
      "date": "2026-04-26~05-01",
      "name": "ICLR 2026",
      "location": "ES",
      "city": "ë°”ë¥´ì…€ë¡œë‚˜",
      "description": "í‘œí˜„í•™ìŠµ ìµœìƒìœ„"
    },
    {
      "date": "2026-06-02~06",
      "name": "CVPR 2026",
      "location": "US",
      "city": "ë´ë²„",
      "description": "ì»´í“¨í„°ë¹„ì „ ìµœìƒìœ„"
    },
    {
      "date": "2026-07-02~07",
      "name": "ACL 2026",
      "location": "US",
      "city": "ìƒŒë””ì—ì´ê³ ",
      "description": "NLP ìµœìƒìœ„ í•™íšŒ"
    },
    {
      "date": "2026-07-06~11",
      "name": "ICML 2026",
      "location": "KR",
      "city": "ì„œìš¸",
      "description": "ML ìµœìƒìœ„ í”„ë¡œê·¸ë¨"
    },
    {
      "date": "2026-08-15~21",
      "name": "IJCAI 2026",
      "location": "DE",
      "city": "ë¸Œë ˆë©˜",
      "description": "AI ì¢…í•© í•™ìˆ "
    },
    {
      "date": "2026-09-08~13",
      "name": "ECCV 2026",
      "location": "SE",
      "city": "ë§ë«¼",
      "description": "ì»´í“¨í„°ë¹„ì „ ìœ ëŸ½"
    },
    {
      "date": "2026-12-14~18",
      "name": "NeurIPS 2026",
      "location": "AU",
      "city": "ì‹œë“œë‹ˆ",
      "description": "ML ìµœëŒ€ í•™ìˆ í–‰ì‚¬"
    }
  ],
  "certifications": [
    {
      "date": "2026-02-07",
      "name": "ADsP/ADP í•„ê¸°",
      "location": "KR",
      "city": "ì „êµ­",
      "description": "ë°ì´í„°ë¶„ì„ ìê²©ì‹œí—˜"
    },
    {
      "date": "2026-02-07",
      "name": "AI-POT (AI í”„ë¡¬í”„íŠ¸ í™œìš©ëŠ¥ë ¥)",
      "location": "KR",
      "city": "ì „êµ­",
      "description": "ì œ1íšŒ ì‹œí—˜, í”„ë¡¬í”„íŠ¸ ì‘ì„± ë° í™œìš© ëŠ¥ë ¥ ê²€ì¦"
    },
    {
      "date": "2026-02-14",
      "name": "AIBT (AI ë¹„ì¦ˆë‹ˆìŠ¤ í™œìš©ëŠ¥ë ¥)",
      "location": "KR",
      "city": "ì „êµ­",
      "description": "ì •ê¸°ì‹œí—˜ (ë§¤ì›” ë‘˜ì§¸ ì£¼ í† ìš”ì¼)"
    },
    {
      "date": "2026-02-28",
      "name": "GTQ-AI (ê·¸ë˜í”½ê¸°ìˆ ìê²©-AI)",
      "location": "KR",
      "city": "ì „êµ­",
      "description": "ë””ìì¸Â·ê·¸ë˜í”½ ë¶„ì•¼ AI í™œìš© ëŠ¥ë ¥ ê²€ì¦"
    },
    {
      "date": "2026-02-28",
      "name": "AICE (AI Certificate for Everyone)",
      "location": "KR",
      "city": "ì˜¨ë¼ì¸",
      "description": "êµ­ê°€ê³µì¸ AI ìê²©ì¦, ì§ìˆ˜ ë‹¬ ì •ê¸° ì‹œí–‰"
    },
    {
      "date": "ìƒì‹œ",
      "name": "SK AX AI ì—­ëŸ‰ ì¸ì¦",
      "location": "KR",
      "city": "ê¸°ì—… ë‚´ë¶€",
      "description": "AI Literacy â†’ AI Transformation ë‹¨ê³„ë³„ ì¸ì¦"
    },
    {
      "date": "2026-03-14",
      "name": "SQLD í•„ê¸°",
      "location": "KR",
      "city": "ì „êµ­",
      "description": "SQL ê°œë°œì ìê²©ì‹œí—˜"
    },
    {
      "date": "2026-05-16",
      "name": "ADsP/ADP í•„ê¸°",
      "location": "KR",
      "city": "ì „êµ­",
      "description": "ë°ì´í„°ë¶„ì„ ìê²©ì‹œí—˜"
    },
    {
      "date": "2026-06-20",
      "name": "SQLD í•„ê¸°",
      "location": "KR",
      "city": "ì „êµ­",
      "description": "SQL ê°œë°œì ìê²©ì‹œí—˜"
    },
    {
      "date": "2026-08-08",
      "name": "ADsP/ADP í•„ê¸°",
      "location": "KR",
      "city": "ì „êµ­",
      "description": "ë°ì´í„°ë¶„ì„ ìê²©ì‹œí—˜"
    },
    {
      "date": "2026-09-19",
      "name": "SQLD/SQLP í•„ê¸°",
      "location": "KR",
      "city": "ì „êµ­",
      "description": "SQL ìê²©ì‹œí—˜"
    },
    {
      "date": "2026-11-07",
      "name": "ADsP/ADP í•„ê¸°",
      "location": "KR",
      "city": "ì „êµ­",
      "description": "ë°ì´í„°ë¶„ì„ ìê²©ì‹œí—˜"
    },
    {
      "date": "2026-12-05",
      "name": "SQLD í•„ê¸°",
      "location": "KR",
      "city": "ì „êµ­",
      "description": "SQL ê°œë°œì ìê²©ì‹œí—˜"
    }
  ],
  "country_flags": {
    "KR": "ğŸ‡°ğŸ‡·",
    "US": "ğŸ‡ºğŸ‡¸",
    "CH": "ğŸ‡¨ğŸ‡­",
    "SG": "ğŸ‡¸ğŸ‡¬",
    "FR": "ğŸ‡«ğŸ‡·",
    "HK": "ğŸ‡­ğŸ‡°",
    "GB": "ğŸ‡¬ğŸ‡§",
    "ES": "ğŸ‡ªğŸ‡¸",
    "AE": "ğŸ‡¦ğŸ‡ª",
    "AT": "ğŸ‡¦ğŸ‡¹",
    "DE": "ğŸ‡©ğŸ‡ª",
    "SE": "ğŸ‡¸ğŸ‡ª",
    "AU": "ğŸ‡¦ğŸ‡º",
    "JP": "ğŸ‡¯ğŸ‡µ"
  }
}